{"type": "FeatureCollection", "features": [{"type": "Feature", "properties": {"name": "119 - JEMBATAN KEDUNGLILIN", "description": "PANJANG : 13\n\nLEBAR : 5,5\n\nJUMLAH BENTANG : 1\n\nTIPE : G\n\nTAHUN : 1987/1988\n\n<br />Elevation = 73,14 m\n<br />Coordinates = S07,81964, E110,21962\n<br />Type = Bridge", "styleUrl": "#Point_Bridge_19_03"}, "geometry": {"type": "Point", "coordinates": [110.21962, -7.819641, 0.0]}}, {"type": "Feature", "properties": {"name": "115 - JEMBATAN FLY OVER NGELO", "description": "PANJANG : 65\n\nLEBAR : 10\n\nJUMLAH BENTANG : 3\n\nTIPE : M\n\nTAHUN : 2016\n\n<br />Elevation = 76,35 m\n<br />Coordinates = S07,84379, E110,21657\n<br />Type = Bridge", "styleUrl": "#Point_Bridge_19_03"}, "geometry": {"type": "Point", "coordinates": [110.216566, -7.843793000000001, 0.0]}}, {"type": "Feature", "properties": {"name": "147 - JEMBATAN DENGGUNG", "description": "PANJANG : 11\n\nLEBAR : 3,5\n\nJUMLAH BENTANG : 1\n\nTIPE : G\n\nTAHUN : -\n\n<br />Elevation = 50,74 m\n<br />Coordinates = S07,85435, E110,20820\n<br />Type = Bridge", "styleUrl": "#Point_Bridge_19_03"}, "geometry": {"type": "Point", "coordinates": [110.208201, -7.854353, 0.0]}}, {"type": "Feature", "properties": {"name": "148 - UNDERPASS KALIMENUR", "description": "PANJANG : 12\n\nLEBAR : 3\n\nJUMLAH BENTANG : 1\n\nTIPE : KX\n\nTAHUN : -\n\n<br />Elevation = 47,22 m\n<br />Coordinates = S07,86587, E110,20543\n<br />Type = Waypoint", "styleUrl": "#Point_Waypoint_19_03"}, "geometry": {"type": "Point", "coordinates": [110.205425, -7.865870000000001, 0.0]}}, {"type": "Feature", "properties": {"name": "025 - JEMBATAN NGANCAR", "description": "PANJANG : 6\n\nLEBAR : 7\n\nJUMLAH BENTANG : 1\n\nTIPE : G\n\nTAHUN : 1984\n\n<br />Elevation = 38,38 m\n<br />Coordinates = S07,88531, E110,22735\n<br />Type = Waypoint", "styleUrl": "#Point_Waypoint_19_03"}, "geometry": {"type": "Point", "coordinates": [110.227346, -7.885308000000001, 0.0]}}, {"type": "Feature", "properties": {"name": "026 - JEMBATAN SEDAN", "description": "PANJANG : 24\n\nLEBAR : 5\n\nJUMLAH BENTANG : 1\n\nTIPE : E\n\nTAHUN : -\n\n<br />Elevation = 36,73 m\n<br />Coordinates = S07,92282, E110,24704\n<br />Type = Waypoint", "styleUrl": "#Point_Waypoint_19_030"}, "geometry": {"type": "Point", "coordinates": [110.247044, -7.922816, 0.0]}}, {"type": "Feature", "properties": {"name": "149 - JEMBATAN TIRTORAHAYU", "description": "PANJANG : 6\n\nLEBAR : 6,5\n\nJUMLAH BENTANG : 1\n\nTIPE : G\n\nTAHUN : -\n\n<br />Elevation = 22,36 m\n<br />Coordinates = S07,93483, E110,20312\n<br />Type = Waypoint", "styleUrl": "#Point_Waypoint_19_031"}, "geometry": {"type": "Point", "coordinates": [110.203116, -7.934825999999999, 0.0]}}, {"type": "Feature", "properties": {"name": "027 - JEMBATAN NGLINGGAN", "description": "PANJANG : 43\n\nLEBAR : 4\n\nJUMLAH BENTANG : 8\n\nTIPE : G\n\nTAHUN : -\n\n<br />Elevation = 17,78 m\n<br />Coordinates = S07,96769, E110,20021\n<br />Type = Waypoint", "styleUrl": "#Point_Waypoint_19_031"}, "geometry": {"type": "Point", "coordinates": [110.200214, -7.967685, 0.0]}}, {"type": "Feature", "properties": {"name": "028 - JEMBATAN BASWIRO", "description": "PANJANG : 12\n\nLEBAR : 7\n\nJUMLAH BENTANG : 1\n\nTIPE : G\n\nTAHUN : -\n\n<br />Elevation = 13,77 m\n<br />Coordinates = S07,90629, E110,17126\n<br />Type = Waypoint", "styleUrl": "#Point_Waypoint_19_032"}, "geometry": {"type": "Point", "coordinates": [110.171255, -7.906294000000001, 0.0]}}, {"type": "Feature", "properties": {"name": "095 - JEMBATAN GOTAKAN I", "description": "PANJANG : 7\n\nLEBAR : 7\n\nJUMLAH BENTANG : 2\n\nTIPE : G\n\nTAHUN : -\n\n<br />Elevation = 15,13 m\n<br />Coordinates = S07,89780, E110,16372\n<br />Type = Waypoint", "styleUrl": "#Point_Waypoint_19_032"}, "geometry": {"type": "Point", "coordinates": [110.163718, -7.897799, 0.0]}}, {"type": "Feature", "properties": {"name": "081 - JEMBATAN GARONGAN IRIGASI", "description": "PANJANG : 10\n\nLEBAR : 6\n\nJUMLAH BENTANG : 1\n\nTIPE : P\n\nTAHUN : -\n\n<br />Elevation = 22,15 m\n<br />Coordinates = S07,92828, E110,13319\n<br />Type = Waypoint", "styleUrl": "#Point_Waypoint_19_032"}, "geometry": {"type": "Point", "coordinates": [110.133194, -7.928277, 0.0]}}, {"type": "Feature", "properties": {"name": "069 - JEMBATAN KREMBANGAN", "description": "PANJANG : 8\n\nLEBAR : 7,5\n\nJUMLAH BENTANG : 1\n\nTIPE : G\n\nTAHUN : 2018\n\n<br />Elevation = 17,35 m\n<br />Coordinates = S07,89952, E110,19034\n<br />Type = Waypoint", "styleUrl": "#Point_Waypoint_19_032"}, "geometry": {"type": "Point", "coordinates": [110.190344, -7.89952, 0.0]}}, {"type": "Feature", "properties": {"name": "144 - JEMBATAN BUGEL I", "description": "PANJANG : 7\n\nLEBAR : 5,5\n\nJUMLAH BENTANG : 1\n\nTIPE : G\n\nTAHUN : -\n\n<br />Elevation = 19,44 m\n<br />Coordinates = S07,92686, E110,16391\n<br />Type = Waypoint", "styleUrl": "#Point_Waypoint_19_032"}, "geometry": {"type": "Point", "coordinates": [110.163908, -7.926857, 0.0]}}, {"type": "Feature", "properties": {"name": "145 - JEMBATAN CIKER", "description": "PANJANG : 31\n\nLEBAR : 4\n\nJUMLAH BENTANG : 3\n\nTIPE : G\n\nTAHUN : -\n\n<br />Elevation = 17,61 m\n<br />Coordinates = S07,93620, E110,18066\n<br />Type = Waypoint", "styleUrl": "#Point_Waypoint_19_032"}, "geometry": {"type": "Point", "coordinates": [110.180662, -7.936199, 0.0]}}, {"type": "Feature", "properties": {"name": "029 - JEMBATAN BERAN", "description": "PANJANG : 7\n\nLEBAR : 5\n\nJUMLAH BENTANG : 1\n\nTIPE : G\n\nTAHUN : -\n\n<br />Elevation = 12,58 m\n<br />Coordinates = S07,92438, E110,16397\n<br />Type = Waypoint", "styleUrl": "#Point_Waypoint_19_032"}, "geometry": {"type": "Point", "coordinates": [110.163975, -7.924384, 0.0]}}, {"type": "Feature", "properties": {"name": "097 - JEMBATAN GOTAKAN 3", "description": "PANJANG : 8\n\nLEBAR : 6\n\nJUMLAH BENTANG : 1\n\nTIPE : G\n\nTAHUN : 2019\n\n<br />Elevation = 15,85 m\n<br />Coordinates = S07,89718, E110,16173\n<br />Type = Waypoint", "styleUrl": "#Point_Waypoint_19_032"}, "geometry": {"type": "Point", "coordinates": [110.161727, -7.897182, 0.0]}}, {"type": "Feature", "properties": {"name": "116 - JEMBATAN KALIGANDU", "description": "PANJANG : 5\n\nLEBAR : 4\n\nJUMLAH BENTANG : 1\n\nTIPE : E\n\nTAHUN : 1987\n\n<br />Elevation = 264,85 m\n<br />Coordinates = S07,68128, E110,16961\n<br />Type = Waypoint", "styleUrl": "#Point_Waypoint_19_033"}, "geometry": {"type": "Point", "coordinates": [110.169612, -7.681281, 0.0]}}, {"type": "Feature", "properties": {"name": "117 - JEMBATAN TAPEN", "description": "PANJANG : 5\n\nLEBAR : 5\n\nJUMLAH BENTANG : 1\n\nTIPE : E\n\nTAHUN : -\n\n<br />Elevation = 298,12 m\n<br />Coordinates = S07,68179, E110,16581\n<br />Type = Waypoint", "styleUrl": "#Point_Waypoint_19_033"}, "geometry": {"type": "Point", "coordinates": [110.165809, -7.681787, 0.0]}}, {"type": "Feature", "properties": {"name": "123 - JEMBATAN NGROTO", "description": "PANJANG : 10\n\nLEBAR : 5\n\nJUMLAH BENTANG : 1\n\nTIPE : E\n\nTAHUN : 1996\n\n<br />Elevation = 323,01 m\n<br />Coordinates = S07,67396, E110,16007\n<br />Type = Waypoint", "styleUrl": "#Point_Waypoint_19_033"}, "geometry": {"type": "Point", "coordinates": [110.160068, -7.673955, 0.0]}}, {"type": "Feature", "properties": {"name": "118 - JEMBATAN KALIMUKUS", "description": "PANJANG : 11\n\nLEBAR : 4\n\nJUMLAH BENTANG : 1\n\nTIPE : G\n\nTAHUN : 1987\n\n<br />Elevation = 375,83 m\n<br />Coordinates = S07,67552, E110,15339\n<br />Type = Waypoint", "styleUrl": "#Point_Waypoint_19_033"}, "geometry": {"type": "Point", "coordinates": [110.153388, -7.675523, 0.0]}}, {"type": "Feature", "properties": {"name": "120 - JEMBATAN PLONO", "description": "PANJANG : 14\n\nLEBAR : 6,5\n\nJUMLAH BENTANG : 1\n\nTIPE : E\n\nTAHUN : 2012\n\n<br />Elevation = 470,02 m\n<br />Coordinates = S07,67025, E110,13780\n<br />Type = Waypoint", "styleUrl": "#Point_Waypoint_19_033"}, "geometry": {"type": "Point", "coordinates": [110.137797, -7.670255, 0.0]}}, {"type": "Feature", "properties": {"name": "122 - JEMBATAN SINOGO", "description": "PANJANG : 5\n\nLEBAR : 3,5\n\nJUMLAH BENTANG : 1\n\nTIPE : G\n\nTAHUN : -\n\n<br />Elevation = 311,61 m\n<br />Coordinates = S07,66744, E110,12367\n<br />Type = Waypoint", "styleUrl": "#Point_Waypoint_19_033"}, "geometry": {"type": "Point", "coordinates": [110.123667, -7.667440999999999, 0.0]}}, {"type": "Feature", "properties": {"name": "121 - JEMBATAN SARIGONO", "description": "PANJANG : 31\n\nLEBAR : 7\n\nJUMLAH BENTANG : 1\n\nTIPE : M\n\nTAHUN : -\n\n<br />Elevation = 395,07 m\n<br />Coordinates = S07,66549, E110,13155\n<br />Type = Waypoint", "styleUrl": "#Point_Waypoint_19_033"}, "geometry": {"type": "Point", "coordinates": [110.131547, -7.665493, 0.0]}}, {"type": "Feature", "properties": {"name": "047 - JEMBATAN DUKUH I", "description": "PANJANG : 6\n\nLEBAR : 10\n\nJUMLAH BENTANG : 1\n\nTIPE : E\n\nTAHUN : 2014\n\n<br />Elevation = 508,27 m\n<br />Coordinates = S07,66383, E110,17079\n<br />Type = Waypoint", "styleUrl": "#Point_Waypoint_19_033"}, "geometry": {"type": "Point", "coordinates": [110.170787, -7.663834, 0.0]}}, {"type": "Feature", "properties": {"name": "048 - JEMBATAN DUKUH II", "description": "PANJANG : 6\n\nLEBAR : 8\n\nJUMLAH BENTANG : 1\n\nTIPE : G\n\nTAHUN : 2016\n\n<br />Elevation = 507,51 m\n<br />Coordinates = S07,66347, E110,17259\n<br />Type = Waypoint", "styleUrl": "#Point_Waypoint_19_033"}, "geometry": {"type": "Point", "coordinates": [110.172593, -7.66347, 0.0]}}, {"type": "Feature", "properties": {"name": "050 - JEMBATAN NGOBARAN - KAYUGEDE", "description": "PANJANG : 5\n\nLEBAR : 7\n\nJUMLAH BENTANG : 1\n\nTIPE : G\n\nTAHUN : 2013\n\n<br />Elevation = 512,84 m\n<br />Coordinates = S07,66128, E110,17581\n<br />Type = Waypoint", "styleUrl": "#Point_Waypoint_19_033"}, "geometry": {"type": "Point", "coordinates": [110.175809, -7.661282, 0.0]}}, {"type": "Feature", "properties": {"name": "039 - JEMBATAN KRASAK", "description": "PANJANG : 6\n\nLEBAR : 8\n\nJUMLAH BENTANG : 1\n\nTIPE : G\n\nTAHUN : 2016\n\n<br />Elevation = 573,79 m\n<br />Coordinates = S07,65515, E110,20135\n<br />Type = Waypoint", "styleUrl": "#Point_Waypoint_19_033"}, "geometry": {"type": "Point", "coordinates": [110.201353, -7.655152, 0.0]}}, {"type": "Feature", "properties": {"name": "038 - JEMBATAN MUNGGANG WETAN", "description": "PANJANG : 8\n\nLEBAR : 5\n\nJUMLAH BENTANG : 1\n\nTIPE : E\n\nTAHUN : -\n\n<br />Elevation = 525,69 m\n<br />Coordinates = S07,66014, E110,20415\n<br />Type = Waypoint", "styleUrl": "#Point_Waypoint_19_033"}, "geometry": {"type": "Point", "coordinates": [110.204153, -7.660135, 0.0]}}, {"type": "Feature", "properties": {"name": "037 - JEMBATAN MUNGGANG WETAN I", "description": "PANJANG : 6\n\nLEBAR : 7\n\nJUMLAH BENTANG : 1\n\nTIPE : G\n\nTAHUN : 2017\n\n<br />Elevation = 459,71 m\n<br />Coordinates = S07,66727, E110,20613\n<br />Type = Waypoint", "styleUrl": "#Point_Waypoint_19_033"}, "geometry": {"type": "Point", "coordinates": [110.206126, -7.667273, 0.0]}}, {"type": "Feature", "properties": {"name": "052 - JEMBATAN SULUR MAJA", "description": "PANJANG : 16\n\nLEBAR : 4\n\nJUMLAH BENTANG : 2\n\nTIPE : E\n\nTAHUN : - \n\n<br />Elevation = 274,28 m\n<br />Coordinates = S07,67854, E110,18646\n<br />Type = Waypoint", "styleUrl": "#Point_Waypoint_19_033"}, "geometry": {"type": "Point", "coordinates": [110.186462, -7.678543, 0.0]}}, {"type": "Feature", "properties": {"name": "099 - JEMBATAN TAMAN", "description": "PANJANG : 35\n\nLEBAR : 5\n\nJUMLAH BENTANG : 2\n\nTIPE : G\n\nTAHUN : 1995\n\n<br />Elevation = 188,15 m\n<br />Coordinates = S07,69171, E110,18923\n<br />Type = Waypoint", "styleUrl": "#Point_Waypoint_19_033"}, "geometry": {"type": "Point", "coordinates": [110.18923, -7.691706, 0.0]}}, {"type": "Feature", "properties": {"name": "098 - JEMBATAN KEDUNGMENTOK", "description": "PANJANG : 13\n\nLEBAR : 4\n\nJUMLAH BENTANG : 2\n\nTIPE : E\n\nTAHUN : -\n\n<br />Elevation = 202,08 m\n<br />Coordinates = S07,69338, E110,18883\n<br />Type = Waypoint", "styleUrl": "#Point_Waypoint_19_033"}, "geometry": {"type": "Point", "coordinates": [110.188835, -7.693384, 0.0]}}, {"type": "Feature", "properties": {"name": "106 - JEMBATAN JARAKAN", "description": "PANJANG : 9\n\nLEBAR : 6\n\nJUMLAH BENTANG : 2\n\nTIPE : E\n\nTAHUN : 2014\n\n<br />Elevation = 533,84 m\n<br />Coordinates = S07,70374, E110,14087\n<br />Type = Waypoint", "styleUrl": "#Point_Waypoint_19_033"}, "geometry": {"type": "Point", "coordinates": [110.140873, -7.703742, 0.0]}}, {"type": "Feature", "properties": {"name": "105 - JEMBATAN JARAKAN II (SEMAWUNG)", "description": "PANJANG : 8\n\nLEBAR : 5\n\nJUMLAH BENTANG : 1\n\nTIPE : E\n\nTAHUN : -\n\n<br />Elevation = 499,61 m\n<br />Coordinates = S07,70561, E110,14487\n<br />Type = Waypoint", "styleUrl": "#Point_Waypoint_19_033"}, "geometry": {"type": "Point", "coordinates": [110.144874, -7.705612, 0.0]}}, {"type": "Feature", "properties": {"name": "104 - JEMBATAN BATUR", "description": "PANJANG : 6\n\nLEBAR : 5,5\n\nJUMLAH BENTANG : 1\n\nTIPE : E\n\nTAHUN : 1990\n\n<br />Elevation = 481,26 m\n<br />Coordinates = S07,70811, E110,15262\n<br />Type = Waypoint", "styleUrl": "#Point_Waypoint_19_033"}, "geometry": {"type": "Point", "coordinates": [110.152618, -7.708112, 0.0]}}, {"type": "Feature", "properties": {"name": "124 - JEMBATAN PRINGTALI 1", "description": "PANJANG : 9\n\nLEBAR : 8\n\nJUMLAH BENTANG : 1\n\nTIPE : G\n\nTAHUN : 2016\n\n<br />Elevation = 436,57 m\n<br />Coordinates = S07,71008, E110,15918\n<br />Type = Waypoint", "styleUrl": "#Point_Waypoint_19_033"}, "geometry": {"type": "Point", "coordinates": [110.159181, -7.710077, 0.0]}}, {"type": "Feature", "properties": {"name": "125 - JEMBATAN PRINGTALI", "description": "PANJANG : 5\n\nLEBAR : 8\n\nJUMLAH BENTANG : 1\n\nTIPE : E\n\nTAHUN : 2014\n\n<br />Elevation = 413,35 m\n<br />Coordinates = S07,71174, E110,16204\n<br />Type = Waypoint", "styleUrl": "#Point_Waypoint_19_033"}, "geometry": {"type": "Point", "coordinates": [110.162037, -7.711741, 0.0]}}, {"type": "Feature", "properties": {"name": "126 - JEMBATAN PRINGTALI 2", "description": "PANJANG : 5\n\nLEBAR : 7\n\nJUMLAH BENTANG : 1\n\nTIPE : G\n\nTAHUN : 2016\n\n<br />Elevation = 404,18 m\n<br />Coordinates = S07,71460, E110,16545\n<br />Type = Waypoint", "styleUrl": "#Point_Waypoint_19_033"}, "geometry": {"type": "Point", "coordinates": [110.165448, -7.714601000000001, 0.0]}}, {"type": "Feature", "properties": {"name": "049 - JEMBATAN DUKUH GERBOSARI", "description": "PANJANG : 5\n\nLEBAR : 8\n\nJUMLAH BENTANG : 1\n\nTIPE : G\n\nTAHUN : 2012\n\n<br />Elevation = 510,82 m\n<br />Coordinates = S07,66295, E110,17369\n<br />Type = Waypoint", "styleUrl": "#Point_Waypoint_19_033"}, "geometry": {"type": "Point", "coordinates": [110.173689, -7.662947, 0.0]}}, {"type": "Feature", "properties": {"name": "156 - JEMBATAN SERANG", "description": "PANJANG : 56\n\nLEBAR : 7\n\nJUMLAH BENTANG : 3\n\nTIPE : G\n\nTAHUN : -\n\n<br />Elevation = 48,10 m\n<br />Coordinates = S07,83532, E110,17084\n<br />Type = Waypoint", "styleUrl": "#Point_Waypoint_19_034"}, "geometry": {"type": "Point", "coordinates": [110.17084, -7.835322, 0.0]}}, {"type": "Feature", "properties": {"name": "040 - JEMBATAN KALIKUTUK", "description": "PANJANG : 7\n\nLEBAR : 6\n\nJUMLAH BENTANG : 1\n\nTIPE : G\n\nTAHUN : 2017\n\n<br />Elevation = 46,14 m\n<br />Coordinates = S07,83900, E110,16699\n<br />Type = Waypoint", "styleUrl": "#Point_Waypoint_19_034"}, "geometry": {"type": "Point", "coordinates": [110.166989, -7.838996, 0.0]}}, {"type": "Feature", "properties": {"name": "056 - JEMBATAN CLERENG", "description": "PANJANG : 68\n\nLEBAR : 6,5\n\nJUMLAH BENTANG : 3\n\nTIPE : M\n\nTAHUN : 1984\n\n<br />Elevation = 55,44 m\n<br />Coordinates = S07,82243, E110,16172\n<br />Type = Waypoint", "styleUrl": "#Point_Waypoint_19_034"}, "geometry": {"type": "Point", "coordinates": [110.161715, -7.822431999999999, 0.0]}}, {"type": "Feature", "properties": {"name": "057 - JEMBATAN PENDEM", "description": "PANJANG : 10\n\nLEBAR : 6,5\n\nJUMLAH BENTANG : 2\n\nTIPE : P\n\nTAHUN : 2012\n\n<br />Elevation = 86,62 m\n<br />Coordinates = S07,80368, E110,16305\n<br />Type = Waypoint", "styleUrl": "#Point_Waypoint_19_034"}, "geometry": {"type": "Point", "coordinates": [110.163049, -7.803678999999999, 0.0]}}, {"type": "Feature", "properties": {"name": "058 - JEMBATAN KUTOGIRI", "description": "PANJANG : 16\n\nLEBAR : 4,5\n\nJUMLAH BENTANG : 2\n\nTIPE : G\n\nTAHUN : 1981\n\n<br />Elevation = 153,91 m\n<br />Coordinates = S07,78651, E110,14768\n<br />Type = Waypoint", "styleUrl": "#Point_Waypoint_19_034"}, "geometry": {"type": "Point", "coordinates": [110.147684, -7.786507, 0.0]}}, {"type": "Feature", "properties": {"name": "059 - JEMBATAN TANGGULANGIN", "description": "PANJANG : 9\n\nLEBAR : 5,5\n\nJUMLAH BENTANG : 1\n\nTIPE : E\n\nTAHUN : -\n\n<br />Elevation = 328,05 m\n<br />Coordinates = S07,77114, E110,14183\n<br />Type = Waypoint", "styleUrl": "#Point_Waypoint_19_034"}, "geometry": {"type": "Point", "coordinates": [110.141826, -7.771139, 0.0]}}, {"type": "Feature", "properties": {"name": "073 - JEMBATAN WADAS II", "description": "PANJANG : 9\n\nLEBAR : 6\n\nJUMLAH BENTANG : 1\n\nTIPE : G\n\nTAHUN : 1993\n\n<br />Elevation = 118,67 m\n<br />Coordinates = S07,78854, E110,17077\n<br />Type = Waypoint", "styleUrl": "#Point_Waypoint_19_034"}, "geometry": {"type": "Point", "coordinates": [110.170766, -7.788537, 0.0]}}, {"type": "Feature", "properties": {"name": "074 - JEMBATAN WADAS", "description": "PANJANG : 15\n\nLEBAR : 5\n\nJUMLAH BENTANG : 1\n\nTIPE : G\n\nTAHUN : 1994\n\n<br />Elevation = 116,50 m\n<br />Coordinates = S07,78851, E110,17211\n<br />Type = Waypoint", "styleUrl": "#Point_Waypoint_19_034"}, "geometry": {"type": "Point", "coordinates": [110.172105, -7.788513, 0.0]}}, {"type": "Feature", "properties": {"name": "092 - JEMBATAN PERENG", "description": "PANJANG : 23\n\nLEBAR : 3,5\n\nJUMLAH BENTANG : 3\n\nTIPE : G\n\nTAHUN : -\n\n<br />Elevation = 64,20 m\n<br />Coordinates = S07,81993, E110,15526\n<br />Type = Waypoint", "styleUrl": "#Point_Waypoint_19_034"}, "geometry": {"type": "Point", "coordinates": [110.15526, -7.819928000000001, 0.0]}}, {"type": "Feature", "properties": {"name": "093 - JEMBATAN PLAOSAN SEGAJIH", "description": "PANJANG : 6\n\nLEBAR : 4\n\nJUMLAH BENTANG : 1\n\nTIPE : E\n\nTAHUN : 1988\n\n<br />Elevation = 205,26 m\n<br />Coordinates = S07,79934, E110,11465\n<br />Type = Waypoint", "styleUrl": "#Point_Waypoint_19_034"}, "geometry": {"type": "Point", "coordinates": [110.114648, -7.799337, 0.0]}}, {"type": "Feature", "properties": {"name": "094 - JEMBATAN IRIGASI TUNJUNGAN", "description": "PANJANG : 7,5\n\nLEBAR : 8\n\nJUMLAH BENTANG : 1\n\nTIPE : G\n\nTAHUN : 2014\n\n<br />Elevation = 38,54 m\n<br />Coordinates = S07,85235, E110,15376\n<br />Type = Waypoint", "styleUrl": "#Point_Waypoint_19_034"}, "geometry": {"type": "Point", "coordinates": [110.15376, -7.852347, 0.0]}}, {"type": "Feature", "properties": {"name": "088 - JEMBATAN NDONDONG", "description": "PANJANG : 6\n\nLEBAR : 5\n\nJUMLAH BENTANG : 2\n\nTIPE : G\n\nTAHUN : 1991/1992\n\n<br />Elevation = 78,52 m\n<br />Coordinates = S07,82611, E110,13698\n<br />Type = Waypoint", "styleUrl": "#Point_Waypoint_19_034"}, "geometry": {"type": "Point", "coordinates": [110.136975, -7.826106999999999, 0.0]}}, {"type": "Feature", "properties": {"name": "015 - JEMBATAN MANDUNG", "description": "PANJANG : 6\n\nLEBAR : 7\n\nJUMLAH BENTANG : 1\n\nTIPE : P\n\nTAHUN : 2012\n\n<br />Elevation = 31,06 m\n<br />Coordinates = S07,84780, E110,16530\n<br />Type = Waypoint", "styleUrl": "#Point_Waypoint_19_034"}, "geometry": {"type": "Point", "coordinates": [110.1653, -7.847796, 0.0]}}, {"type": "Feature", "properties": {"name": "141 - JEMBATAN TEGALPARANG", "description": "PANJANG : 18\n\nLEBAR : 4\n\nJUMLAH BENTANG : 1\n\nTIPE : G\n\nTAHUN : -\n\n<br />Elevation = 17,64 m\n<br />Coordinates = S07,87946, E110,12150\n<br />Type = Waypoint", "styleUrl": "#Point_Waypoint_19_034"}, "geometry": {"type": "Point", "coordinates": [110.121504, -7.879462, 0.0]}}, {"type": "Feature", "properties": {"name": "142 - JEMBATAN MARGOSARI", "description": "PANJANG : 21\n\nLEBAR : 12\n\nJUMLAH BENTANG : 1\n\nTIPE : G\n\nTAHUN : 2016\n\n<br />Elevation = 35,47 m\n<br />Coordinates = S07,86325, E110,17452\n<br />Type = Waypoint", "styleUrl": "#Point_Waypoint_19_034"}, "geometry": {"type": "Point", "coordinates": [110.17452, -7.863254, 0.0]}}, {"type": "Feature", "properties": {"name": "089 - JEMBATAN GUNUNG GONDANG 2", "description": "PANJANG : 6\n\nLEBAR : 5\n\nJUMLAH BENTANG : 1\n\nTIPE : G\n\nTAHUN : 2016\n\n<br />Elevation = 37,16 m\n<br />Coordinates = S07,84936, E110,18039\n<br />Type = Waypoint", "styleUrl": "#Point_Waypoint_19_034"}, "geometry": {"type": "Point", "coordinates": [110.180393, -7.849359000000001, 0.0]}}, {"type": "Feature", "properties": {"name": "090 - JEMBATAN GUNUNG GONDANG 1", "description": "PANJANG : 5\n\nLEBAR : 5\n\nJUMLAH BENTANG : 1\n\nTIPE : G/E\n\nTAHUN : 2016\n\n<br />Elevation = 42,87 m\n<br />Coordinates = S07,84747, E110,18466\n<br />Type = Waypoint", "styleUrl": "#Point_Waypoint_19_034"}, "geometry": {"type": "Point", "coordinates": [110.184655, -7.847472, 0.0]}}, {"type": "Feature", "properties": {"name": "143 - UNDERPASS MARGOSARI", "description": "PANJANG : 11\n\nLEBAR : 3\n\nJUMLAH BENTANG : 2\n\nTIPE : KX\n\nTAHUN : -\n\n<br />Elevation = 26,28 m\n<br />Coordinates = S07,86095, E110,17427\n<br />Type = Waypoint", "styleUrl": "#Point_Waypoint_19_034"}, "geometry": {"type": "Point", "coordinates": [110.174272, -7.860954, 0.0]}}, {"type": "Feature", "properties": {"name": "155 - JEMBATAN TOPOMULYO", "description": "PANJANG : 14\n\nLEBAR : 4\n\nJUMLAH BENTANG : 2\n\nTIPE : G\n\nTAHUN : 2001\n\n<br />Elevation = 81,50 m\n<br />Coordinates = S07,81518, E110,15078\n<br />Type = Waypoint", "styleUrl": "#Point_Waypoint_19_034"}, "geometry": {"type": "Point", "coordinates": [110.150784, -7.815175, 0.0]}}, {"type": "Feature", "properties": {"name": "154 - JEMBATAN BLUBUK", "description": "PANJANG : 13\n\nLEBAR : 5\n\nJUMLAH BENTANG : 1\n\nTIPE : G\n\nTAHUN : 2012\n\n<br />Coordinates = S07,79866, E110,14294\n<br />Type = Waypoint", "styleUrl": "#Point_Waypoint_19_034"}, "geometry": {"type": "Point", "coordinates": [110.14294254, -7.798656480000001, 0.0]}}, {"type": "Feature", "properties": {"name": "150 - JEMBATAN WATULUNYU I", "description": "PANJANG : 6\n\nLEBAR : 9\n\nJUMLAH BENTANG : 1\n\nTIPE : G\n\nTAHUN : -\n\n<br />Elevation = 38,01 m\n<br />Coordinates = S07,85751, E110,16236\n<br />Type = Waypoint", "styleUrl": "#Point_Waypoint_19_035"}, "geometry": {"type": "Point", "coordinates": [110.162355, -7.857506000000001, 0.0]}}, {"type": "Feature", "properties": {"name": "085 - JEMBATAN DIPAN I", "description": "PANJANG : 6\n\nLEBAR : 7\n\nJUMLAH BENTANG : 1\n\nTIPE : G\n\nTAHUN : -\n\n<br />Elevation = 33,36 m\n<br />Coordinates = S07,86333, E110,15044\n<br />Type = Waypoint", "styleUrl": "#Point_Waypoint_19_035"}, "geometry": {"type": "Point", "coordinates": [110.150437, -7.863327, 0.0]}}, {"type": "Feature", "properties": {"name": "086 - JEMBATAN KALIPENING", "description": "PANJANG : 7\n\nLEBAR : 7\n\nJUMLAH BENTANG : 1\n\nTIPE : G\n\nTAHUN : 1991\n\n<br />Elevation = 31,34 m\n<br />Coordinates = S07,86927, E110,12768\n<br />Type = Waypoint", "styleUrl": "#Point_Waypoint_19_035"}, "geometry": {"type": "Point", "coordinates": [110.127677, -7.869268, 0.0]}}, {"type": "Feature", "properties": {"name": "070 - JEMBATAN BEJI 2", "description": "PANJANG : 5\n\nLEBAR : 7,5\n\nJUMLAH BENTANG : 1\n\nTIPE : G\n\nTAHUN : 2012\n\n<br />Elevation = 36,19 m\n<br />Coordinates = S07,85828, E110,14749\n<br />Type = Waypoint", "styleUrl": "#Point_Waypoint_19_035"}, "geometry": {"type": "Point", "coordinates": [110.147486, -7.85828, 0.0]}}, {"type": "Feature", "properties": {"name": "071 - JEMBATAN NGRUNO", "description": "PANJANG : 7\n\nLEBAR : 10\n\nJUMLAH BENTANG : 1\n\nTIPE : P\n\nTAHUN : -\n\n<br />Elevation = 54,42 m\n<br />Coordinates = S07,85068, E110,14112\n<br />Type = Waypoint", "styleUrl": "#Point_Waypoint_19_035"}, "geometry": {"type": "Point", "coordinates": [110.141121, -7.850675, 0.0]}}, {"type": "Feature", "properties": {"name": "151 - JEMBATAN BHAYANGKARA", "description": "PANJANG : 5\n\nLEBAR : 9\n\nJUMLAH BENTANG : 1\n\nTIPE : G\n\nTAHUN : - \n\n<br />Elevation = 37,24 m\n<br />Coordinates = S07,85560, E110,16289\n<br />Type = Waypoint", "styleUrl": "#Point_Waypoint_19_035"}, "geometry": {"type": "Point", "coordinates": [110.162885, -7.855602, 0.0]}}, {"type": "Feature", "properties": {"name": "152 - JEMBATAN KEMIRI I", "description": "PANJANG : 6\n\nLEBAR : 4\n\nJUMLAH BENTANG : 1 \n\nTIPE : E\n\nTAHUN : -\n\n<br />Elevation = 33,45 m\n<br />Coordinates = S07,86032, E110,16271\n<br />Type = Waypoint", "styleUrl": "#Point_Waypoint_19_035"}, "geometry": {"type": "Point", "coordinates": [110.162711, -7.860325, 0.0]}}, {"type": "Feature", "properties": {"name": "034 - JEMBATAN TRIMULYA", "description": "PANJANG : 6\n\nLEBAR : 8\n\nJUMLAH BENTANG : 1\n\nTIPE : G\n\nTAHUN : 2018\n\n<br />Elevation = 27,61 m\n<br />Coordinates = S07,89681, E110,11713\n<br />Type = Waypoint", "styleUrl": "#Point_Waypoint_19_035"}, "geometry": {"type": "Point", "coordinates": [110.117125, -7.896808, 0.0]}}, {"type": "Feature", "properties": {"name": "035 - JEMBATAN KARANGWUNI", "description": "PANJANG : 63\n\nLEBAR : 8\n\nJUMLAH BENTANG : 3\n\nTIPE : M\n\nTAHUN : 2012\n\n<br />Elevation = 29,42 m\n<br />Coordinates = S07,91033, E110,11405\n<br />Type = Waypoint", "styleUrl": "#Point_Waypoint_19_035"}, "geometry": {"type": "Point", "coordinates": [110.11405, -7.910326999999999, 0.0]}}, {"type": "Feature", "properties": {"name": "036 - JEMBATAN DARAT KARANGWUNI", "description": "PANJANG : 6\n\nLEBAR : 8\n\nJUMLAH BENTANG : 1\n\nTIPE : G\n\nTAHUN : 2014\n\n<br />Elevation = 25,66 m\n<br />Coordinates = S07,91919, E110,11047\n<br />Type = Waypoint", "styleUrl": "#Point_Waypoint_19_035"}, "geometry": {"type": "Point", "coordinates": [110.110474, -7.91919, 0.0]}}, {"type": "Feature", "properties": {"name": "146 - JEMBATAN KARANGWUNI II", "description": "PANJANG : 8\n\nLEBAR : 5\n\nJUMLAH BENTANG : 2\n\nTIPE : E\n\nTAHUN : -\n\n<br />Elevation = 27,58 m\n<br />Coordinates = S07,91259, E110,09599\n<br />Type = Waypoint", "styleUrl": "#Point_Waypoint_19_035"}, "geometry": {"type": "Point", "coordinates": [110.095987, -7.912589999999999, 0.0]}}, {"type": "Feature", "properties": {"name": "033 - JEMBATAN PLERET", "description": "PANJANG : 9\n\nLEBAR : 6\n\nJUMLAH BENTANG : 1\n\nTIPE : G\n\nTAHUN : -\n\n<br />Elevation = 11,10 m\n<br />Coordinates = S07,93427, E110,14669\n<br />Type = Waypoint", "styleUrl": "#Point_Waypoint_19_035"}, "geometry": {"type": "Point", "coordinates": [110.146695, -7.934274, 0.0]}}, {"type": "Feature", "properties": {"name": "030 - JEMBATAN KULUR", "description": "PANJANG : 29\n\nLEBAR : 5\n\nJUMLAH BENTANG : 3\n\nTIPE : G\n\nTAHUN : -\n\n<br />Elevation = 72,25 m\n<br />Coordinates = S07,87285, E110,10675\n<br />Type = Waypoint", "styleUrl": "#Point_Waypoint_19_036"}, "geometry": {"type": "Point", "coordinates": [110.106745, -7.872847000000001, 0.0]}}, {"type": "Feature", "properties": {"name": "031 - JEMBATAN KULUR IRIGASI", "description": "PANJANG : 6\n\nLEBAR : 4,5\n\nJUMLAH BENTANG : 1\n\nTIPE : G\n\nTAHUN : -\n\n<br />Elevation = 68,53 m\n<br />Coordinates = S07,87256, E110,10613\n<br />Type = Waypoint", "styleUrl": "#Point_Waypoint_19_036"}, "geometry": {"type": "Point", "coordinates": [110.106134, -7.872556, 0.0]}}, {"type": "Feature", "properties": {"name": "032 - JEMBATAN PULODADI", "description": "PANJANG : 6\n\nLEBAR : 4\n\nJUMLAH BENTANG : 1\n\nTIPE : G\n\nTAHUN : -\n\n<br />Elevation = 65,08 m\n<br />Coordinates = S07,87191, E110,09911\n<br />Type = Waypoint", "styleUrl": "#Point_Waypoint_19_036"}, "geometry": {"type": "Point", "coordinates": [110.099108, -7.871909, 0.0]}}, {"type": "Feature", "properties": {"name": "024 - JEMBATAN NAGUNG", "description": "PANJANG : 19\n\nLEBAR : 6,5\n\nJUMLAH BENTANG : 1\n\nTIPE : G\n\nTAHUN : 1982\n\n<br />Elevation = 57,85 m\n<br />Coordinates = S07,88413, E110,10603\n<br />Type = Waypoint", "styleUrl": "#Point_Waypoint_19_036"}, "geometry": {"type": "Point", "coordinates": [110.106025, -7.88413, 0.0]}}, {"type": "Feature", "properties": {"name": "083 - JEMBATAN ANCAR", "description": "PANJANG : 6\n\nLEBAR : 6\n\nJUMLAH BENTANG : 1\n\nTIPE : G\n\nTAHUN : -\n\n<br />Elevation = 50,97 m\n<br />Coordinates = S07,88060, E110,09704\n<br />Type = Waypoint", "styleUrl": "#Point_Waypoint_19_036"}, "geometry": {"type": "Point", "coordinates": [110.097036, -7.880604, 0.0]}}, {"type": "Feature", "properties": {"name": "084 - JEMBATAN SIWATES", "description": "PANJANG : 7\n\nLEBAR : 6\n\nJUMLAH BENTANG : 1\n\nTIPE : G\n\nTAHUN : 2010\n\n<br />Elevation = 55,35 m\n<br />Coordinates = S07,87708, E110,09549\n<br />Type = Waypoint", "styleUrl": "#Point_Waypoint_19_036"}, "geometry": {"type": "Point", "coordinates": [110.095486, -7.877084, 0.0]}}, {"type": "Feature", "properties": {"name": "023 - JEMBATAN JATIKONTAL II", "description": "PANJANG : 7\n\nLEBAR : 6\n\nJUMLAH BENTANG : 2\n\nTIPE : G\n\nTAHUN : -\n\n<br />Elevation = 49,81 m\n<br />Coordinates = S07,87572, E110,08685\n<br />Type = Waypoint", "styleUrl": "#Point_Waypoint_19_036"}, "geometry": {"type": "Point", "coordinates": [110.086848, -7.875716000000001, 0.0]}}, {"type": "Feature", "properties": {"name": "022 - JEMBATAN KEBONREJO", "description": "PANJANG : 8\n\nLEBAR : 6\n\nJUMLAH BENTANG : 1\n\nTIPE : G\n\nTAHUN : 1996\n\n<br />Elevation = 46,51 m\n<br />Coordinates = S07,87182, E110,07404\n<br />Type = Waypoint", "styleUrl": "#Point_Waypoint_19_036"}, "geometry": {"type": "Point", "coordinates": [110.074043, -7.871818, 0.0]}}, {"type": "Feature", "properties": {"name": "021 - JEMBATAN TONOBAKAL", "description": "PANJANG : 8\n\nLEBAR : 6\n\nJUMLAH BENTANG : 1\n\nTIPE : G\n\nTAHUN : 1996\n\n<br />Elevation = 47,34 m\n<br />Coordinates = S07,87106, E110,07152\n<br />Type = Waypoint", "styleUrl": "#Point_Waypoint_19_036"}, "geometry": {"type": "Point", "coordinates": [110.071518, -7.871060999999999, 0.0]}}, {"type": "Feature", "properties": {"name": "082 - JEMBATAN KALICARIK I", "description": "PANJANG : 14\n\nLEBAR : 3,5\n\nJUMLAH BENTANG : 1\n\nTIPE : G\n\nTAHUN : -\n\n<br />Elevation = 32,79 m\n<br />Coordinates = S07,89674, E110,07569\n<br />Type = Waypoint", "styleUrl": "#Point_Waypoint_19_036"}, "geometry": {"type": "Point", "coordinates": [110.075686, -7.896742, 0.0]}}, {"type": "Feature", "properties": {"name": "107 - JEMBATAN KEMESU", "description": "PANJANG : 17\n\nLEBAR : 5,5\n\nJUMLAH BENTANG : 1\n\nTIPE : G\n\nTAHUN : 2010\n\n<br />Elevation = 107,76 m\n<br />Coordinates = S07,73388, E110,21276\n<br />Type = Waypoint", "styleUrl": "#Point_Waypoint_19_037"}, "geometry": {"type": "Point", "coordinates": [110.212756, -7.733875, 0.0]}}, {"type": "Feature", "properties": {"name": "108 - JEMBATAN DEGAN PENGAIRAN", "description": "PANJANG : 14\n\nLEBAR : 4\n\nJUMLAH BENTANG : 1\n\nTIPE : E\n\nTAHUN : -\n\n<br />Elevation = 152,41 m\n<br />Coordinates = S07,73042, E110,20155\n<br />Type = Waypoint", "styleUrl": "#Point_Waypoint_19_037"}, "geometry": {"type": "Point", "coordinates": [110.20155, -7.730417, 0.0]}}, {"type": "Feature", "properties": {"name": "051 - JEMBATAN KLEPU PENGAIRAN", "description": "PANJANG : 11\n\nLEBAR : 4\n\nJUMLAH BENTANG : 1\n\nTIPE : E\n\nTAHUN : -\n\n<br />Elevation = 187,48 m\n<br />Coordinates = S07,69294, E110,25665\n<br />Type = Waypoint", "styleUrl": "#Point_Waypoint_19_037"}, "geometry": {"type": "Point", "coordinates": [110.256645, -7.692942000000001, 0.0]}}, {"type": "Feature", "properties": {"name": "001 - JEMBATAN BOGO/PENGAIRAN", "description": "PANJANG : 5\n\nLEBAR : 5,4\n\nJUMLAH BENTANG : 1\n\nTIPE : E\n\nTAHUN : 1993\n\n<br />Elevation = 180,97 m\n<br />Coordinates = S07,67874, E110,25870\n<br />Type = Waypoint", "styleUrl": "#Point_Waypoint_19_037"}, "geometry": {"type": "Point", "coordinates": [110.258701, -7.678742000000001, 0.0]}}, {"type": "Feature", "properties": {"name": "002 - JEMBATAN KEDUNG PRECIL", "description": "PANJANG : 15\n\nLEBAR : 7\n\nJUMLAH BENTANG : 1\n\nTIPE : G\n\nTAHUN :  -\n\n<br />Elevation = 180,02 m\n<br />Coordinates = S07,67978, E110,24955\n<br />Type = Waypoint", "styleUrl": "#Point_Waypoint_19_037"}, "geometry": {"type": "Point", "coordinates": [110.249551, -7.679782, 0.0]}}, {"type": "Feature", "properties": {"name": "127 - JEMBATAN PANTOK", "description": "PANJANG : 5\n\nLEBAR : 5,5\n\nJUMLAH BENTANG : 1\n\nTIPE : E\n\nTAHUN : -\n\n<br />Elevation = 180,15 m\n<br />Coordinates = S07,67574, E110,26101\n<br />Type = Waypoint", "styleUrl": "#Point_Waypoint_19_037"}, "geometry": {"type": "Point", "coordinates": [110.261014, -7.675741, 0.0]}}, {"type": "Feature", "properties": {"name": "128 - JEMBATAN PENGAIRAN", "description": "PANJANG : 6\n\nLEBAR : 4\n\nJUMLAH BENTANG : 1\n\nTIPE : G\n\nTAHUN : -\n\n<br />Elevation = 179,93 m\n<br />Coordinates = S07,67568, E110,26080\n<br />Type = Waypoint", "styleUrl": "#Point_Waypoint_19_037"}, "geometry": {"type": "Point", "coordinates": [110.260804, -7.675680999999999, 0.0]}}, {"type": "Feature", "properties": {"name": "044 - JEMBATAN SLANDEN", "description": "PANJANG : 6\n\nLEBAR : 7\n\nJUMLAH BENTANG : 1\n\nTIPE : G\n\nTAHUN : -\n\n<br />Elevation = 209,47 m\n<br />Coordinates = S07,65881, E110,25718\n<br />Type = Waypoint", "styleUrl": "#Point_Waypoint_19_037"}, "geometry": {"type": "Point", "coordinates": [110.257179, -7.658807, 0.0]}}, {"type": "Feature", "properties": {"name": "045 - JEMBATAN SEMAWUNG", "description": "PANJANG : 9\n\nLEBAR : 7,5\n\nJUMLAH BENTANG : 1\n\nTIPE : E\n\nTAHUN : 2014\n\n<br />Elevation = 217,43 m\n<br />Coordinates = S07,66291, E110,25004\n<br />Type = Waypoint", "styleUrl": "#Point_Waypoint_19_037"}, "geometry": {"type": "Point", "coordinates": [110.250041, -7.662906, 0.0]}}, {"type": "Feature", "properties": {"name": "046 - JEMBATAN SLANDEN II", "description": "PANJANG : 8\n\nLEBAR : 4\n\nJUMLAH BENTANG : 1\n\nTIPE : G\n\nTAHUN : -\n\n<br />Elevation = 216,89 m\n<br />Coordinates = S07,66298, E110,24404\n<br />Type = Waypoint", "styleUrl": "#Point_Waypoint_19_037"}, "geometry": {"type": "Point", "coordinates": [110.244037, -7.662975, 0.0]}}, {"type": "Feature", "properties": {"name": "110 - JEMBATAN JAGALAN", "description": "PANJANG : 17\n\nLEBAR : 6\n\nJUMLAH BENTANG : 1\n\nTIPE : M\n\nTAHUN : 2009\n\n<br />Elevation = 202,19 m\n<br />Coordinates = S07,64414, E110,25272\n<br />Type = Waypoint", "styleUrl": "#Point_Waypoint_19_037"}, "geometry": {"type": "Point", "coordinates": [110.25272, -7.644136, 0.0]}}, {"type": "Feature", "properties": {"name": "111 - JEMBATAN KALIKATUL", "description": "PANJANG : 10\n\nLEBAR : 6\n\nJUMLAH BENTANG : 1\n\nTIPE : E\n\nTAHUN : 2015\n\n<br />Elevation = 262,17 m\n<br />Coordinates = S07,65335, E110,23834\n<br />Type = Waypoint", "styleUrl": "#Point_Waypoint_19_037"}, "geometry": {"type": "Point", "coordinates": [110.238343, -7.653351999999999, 0.0]}}, {"type": "Feature", "properties": {"name": "112 - JEMBATAN KLANGON", "description": "PANJANG : 6\n\nLEBAR : 7\n\nJUMLAH BENTANG : 1\n\nTIPE : E\n\nTAHUN : 2018\n\n<br />Elevation = 283,30 m\n<br />Coordinates = S07,65517, E110,23336\n<br />Type = Waypoint", "styleUrl": "#Point_Waypoint_19_037"}, "geometry": {"type": "Point", "coordinates": [110.233362, -7.655169, 0.0]}}, {"type": "Feature", "properties": {"name": "113 - JEMBATAN PLENGAN", "description": "PANJANG : 5\n\nLEBAR : 5,5\n\nJUMLAH BENTANG : 1\n\nTIPE : E\n\nTAHUN : -\n\n<br />Elevation = 314,47 m\n<br />Coordinates = S07,65707, E110,22584\n<br />Type = Waypoint", "styleUrl": "#Point_Waypoint_19_037"}, "geometry": {"type": "Point", "coordinates": [110.225837, -7.657073, 0.0]}}, {"type": "Feature", "properties": {"name": "114 - JEMBATAN KALISALAK", "description": "PANJANG : 5\n\nLEBAR : 5,5\n\nJUMLAH BENTANG : 1\n\nTIPE : E\n\nTAHUN : 1985/1986\n\n<br />Elevation = 311,96 m\n<br />Coordinates = S07,65866, E110,22668\n<br />Type = Waypoint", "styleUrl": "#Point_Waypoint_19_037"}, "geometry": {"type": "Point", "coordinates": [110.226682, -7.658665000000001, 0.0]}}, {"type": "Feature", "properties": {"name": "109 - JEMBATAN KEDUNG BESI", "description": "PANJANG : 5\n\nLEBAR : 5\n\nJUMLAH BENTANG : 1\n\nTIPE : E\n\nTAHUN : 1986/1987\n\n<br />Elevation = 503,46 m\n<br />Coordinates = S07,65790, E110,20736\n<br />Type = Waypoint", "styleUrl": "#Point_Waypoint_19_037"}, "geometry": {"type": "Point", "coordinates": [110.207364, -7.657904, 0.0]}}, {"type": "Feature", "properties": {"name": "041 - JEMBATAN SEMAGUNG", "description": "PANJANG : 5\n\nLEBAR : 6\n\nJUMLAH BENTANG : 1\n\nTIPE : E\n\nTAHUN : 2014\n\n<br />Elevation = 308,32 m\n<br />Coordinates = S07,66603, E110,22624\n<br />Type = Waypoint", "styleUrl": "#Point_Waypoint_19_037"}, "geometry": {"type": "Point", "coordinates": [110.226236, -7.666031, 0.0]}}, {"type": "Feature", "properties": {"name": "042 - JEMBATAN GEBLAK", "description": "PANJANG : 5\n\nLEBAR : 5\n\nJUMLAH BENTANG : 1\n\nTIPE : G\n\nTAHUN : -\n\n<br />Elevation = 321,80 m\n<br />Coordinates = S07,66908, E110,22520\n<br />Type = Waypoint", "styleUrl": "#Point_Waypoint_19_037"}, "geometry": {"type": "Point", "coordinates": [110.225197, -7.669076, 0.0]}}, {"type": "Feature", "properties": {"name": "004 - JEMBATAN SEMAK", "description": "PANJANG : 7\n\nLEBAR : 6\n\nJUMLAH BENTANG : 2\n\nTIPE : E\n\nTAHUN : -\n\n<br />Elevation = 143,40 m\n<br />Coordinates = S07,69850, E110,22585\n<br />Type = Waypoint", "styleUrl": "#Point_Waypoint_19_037"}, "geometry": {"type": "Point", "coordinates": [110.225851, -7.6985, 0.0]}}, {"type": "Feature", "properties": {"name": "005 - JEMBATAN TIMO", "description": "PANJANG : 8\n\nLEBAR : 6\n\nJUMLAH BENTANG : 1\n\nTIPE : G\n\nTAHUN : 1992\n\n<br />Elevation = 126,68 m\n<br />Coordinates = S07,70882, E110,23016\n<br />Type = Waypoint", "styleUrl": "#Point_Waypoint_19_037"}, "geometry": {"type": "Point", "coordinates": [110.230158, -7.708823, 0.0]}}, {"type": "Feature", "properties": {"name": "006 - JEMBATAN BORO I", "description": "PANJANG : 7\n\nLEBAR : 6,5\n\nJUMLAH BENTANG : 1\n\nTIPE : G\n\nTAHUN : 1992\n\n<br />Elevation = 147,97 m\n<br />Coordinates = S07,69561, E110,22369\n<br />Type = Waypoint", "styleUrl": "#Point_Waypoint_19_037"}, "geometry": {"type": "Point", "coordinates": [110.223686, -7.695607000000001, 0.0]}}, {"type": "Feature", "properties": {"name": "007 - JEMBATAN BOROSUCI", "description": "PANJANG : 15\n\nLEBAR : 3,6\n\nJUMLAH BENTANG : 2\n\nTIPE : G\n\nTAHUN : -\n\n<br />Elevation = 209,71 m\n<br />Coordinates = S07,68197, E110,21496\n<br />Type = Waypoint", "styleUrl": "#Point_Waypoint_19_037"}, "geometry": {"type": "Point", "coordinates": [110.214955, -7.681974, 0.0]}}, {"type": "Feature", "properties": {"name": "008 - JEMBATAN KEDUNG KOBONG", "description": "PANJANG : 7\n\nLEBAR : 4,5\n\nJUMLAH BENTANG : 1\n\nTIPE : E\n\nTAHUN : -\n\n<br />Elevation = 277,50 m\n<br />Coordinates = S07,67499, E110,18980\n<br />Type = Waypoint", "styleUrl": "#Point_Waypoint_19_037"}, "geometry": {"type": "Point", "coordinates": [110.189795, -7.674989, 0.0]}}, {"type": "Feature", "properties": {"name": "009 - JEMBATAN KALIDUREN", "description": "PANJANG : 5\n\nLEBAR : 5,5\n\nJUMLAH BENTANG :1 \n\nTIPE : G\n\nTAHUN : 1985/1986\n\n<br />Elevation = 348,44 m\n<br />Coordinates = S07,67140, E110,17923\n<br />Type = Waypoint", "styleUrl": "#Point_Waypoint_19_037"}, "geometry": {"type": "Point", "coordinates": [110.179229, -7.671396, 0.0]}}, {"type": "Feature", "properties": {"name": "010 - JEMBATAN KARANG", "description": "PANJANG : 13\n\nLEBAR : 9\n\nJUMLAH BENTANG : 1 \n\nTIPE : G\n\nTAHUN : 2014\n\n<br />Elevation = 399,55 m\n<br />Coordinates = S07,67195, E110,17507\n<br />Type = Waypoint", "styleUrl": "#Point_Waypoint_19_037"}, "geometry": {"type": "Point", "coordinates": [110.175072, -7.671955, 0.0]}}, {"type": "Feature", "properties": {"name": "043 - JEMBATAN SENTUL", "description": "PANJANG : 5\n\nLEBAR : 7,5\n\nJUMLAH BENTANG : 1\n\nTIPE : E\n\nTAHUN : 2015\n\n<br />Elevation = 371,73 m\n<br />Coordinates = S07,67466, E110,22807\n<br />Type = Waypoint", "styleUrl": "#Point_Waypoint_19_037"}, "geometry": {"type": "Point", "coordinates": [110.228073, -7.674656000000001, 0.0]}}, {"type": "Feature", "properties": {"name": "003 - JEMBATAN BORO PENGAIRAN", "description": "PANJANG : 5\n\nLEBAR : 8\n\nJUMLAH BENTANG : 2\n\nTIPE : G\n\nTAHUN : \n\n<br />Elevation = 151,70 m\n<br />Coordinates = S07,69735, E110,22527\n<br />Type = Waypoint", "styleUrl": "#Point_Waypoint_19_037"}, "geometry": {"type": "Point", "coordinates": [110.225273, -7.69735, 0.0]}}, {"type": "Feature", "properties": {"name": "100 - JEMBATAN KEDUNGTAWANG", "description": "PANJANG : 5\n\nLEBAR : 5\n\nJUMLAH BENTANG : 1\n\nTIPE : P\n\nTAHUN : 1988\n\n<br />Elevation = 387,94 m\n<br />Coordinates = S07,71771, E110,17231\n<br />Type = Waypoint", "styleUrl": "#Point_Waypoint_19_038"}, "geometry": {"type": "Point", "coordinates": [110.172307, -7.717711, 0.0]}}, {"type": "Feature", "properties": {"name": "101 - JEMBATAN KEDUNGROMO", "description": "PANJANG : 17\n\nLEBAR : 4\n\nJUMLAH BENTANG : 1\n\nTIPE : G\n\nTAHUN : 1988\n\n<br />Elevation = 360,11 m\n<br />Coordinates = S07,71988, E110,17130\n<br />Type = Waypoint", "styleUrl": "#Point_Waypoint_19_038"}, "geometry": {"type": "Point", "coordinates": [110.1713, -7.71988, 0.0]}}, {"type": "Feature", "properties": {"name": "102 - JEMBATAN KALIMASAN", "description": "PANJANG : 7\n\nLEBAR : 5,5\n\nJUMLAH BENTANG : 1\n\nTIPE : E\n\nTAHUN : 1986\n\n<br />Elevation = 454,84 m\n<br />Coordinates = S07,72236, E110,16426\n<br />Type = Waypoint", "styleUrl": "#Point_Waypoint_19_038"}, "geometry": {"type": "Point", "coordinates": [110.164257, -7.722363999999999, 0.0]}}, {"type": "Feature", "properties": {"name": "134 - JEMBATAN BATAS DESA (GOWOK)", "description": "PANJANG : 6\n\nLEBAR : 4\n\nJUMLAH BENTANG : 1\n\nTIPE : E\n\nTAHUN : 1991/1992\n\n<br />Elevation = 537,61 m\n<br />Coordinates = S07,70810, E110,14425\n<br />Type = Waypoint", "styleUrl": "#Point_Waypoint_19_038"}, "geometry": {"type": "Point", "coordinates": [110.144247, -7.708096, 0.0]}}, {"type": "Feature", "properties": {"name": "103 - JEMBATAN DONGLOWO", "description": "PANJANG : 20\n\nLEBAR : 4\n\nJUMLAH BENTANG : 1\n\nTIPE : G\n\nTAHUN : -\n\n<br />Elevation = 228,23 m\n<br />Coordinates = S07,73876, E110,17926\n<br />Type = Waypoint", "styleUrl": "#Point_Waypoint_19_038"}, "geometry": {"type": "Point", "coordinates": [110.179259, -7.738763000000001, 0.0]}}, {"type": "Feature", "properties": {"name": "131 - JEMBATAN DLINGSENG", "description": "PANJANG : 13\n\nLEBAR : 9\n\nJUMLAH BENTANG : 1\n\nTIPE : G\n\nTAHUN : 2015\n\n<br />Elevation = 518,30 m\n<br />Coordinates = S07,72640, E110,15830\n<br />Type = Waypoint", "styleUrl": "#Point_Waypoint_19_038"}, "geometry": {"type": "Point", "coordinates": [110.158297, -7.726404, 0.0]}}, {"type": "Feature", "properties": {"name": "132 - JEMBATAN KALILENGKI", "description": "PANJANG : 18\n\nLEBAR : 5,5\n\nJUMLAH BENTANG : 1\n\nTIPE : E\n\nTAHUN : 2012\n\n<br />Elevation = 449,05 m\n<br />Coordinates = S07,73364, E110,15152\n<br />Type = Waypoint", "styleUrl": "#Point_Waypoint_19_038"}, "geometry": {"type": "Point", "coordinates": [110.151517, -7.733637, 0.0]}}, {"type": "Feature", "properties": {"name": "133 - JEMBATAN BANDES/SWADAYA", "description": "PANJANG : 5\n\nLEBAR : 4\n\nJUMLAH BENTANG : 1\n\nTIPE : E\n\nTAHUN : 1982\n\n<br />Elevation = 453,79 m\n<br />Coordinates = S07,73597, E110,15087\n<br />Type = Waypoint", "styleUrl": "#Point_Waypoint_19_038"}, "geometry": {"type": "Point", "coordinates": [110.150871, -7.735971, 0.0]}}, {"type": "Feature", "properties": {"name": "087 - JEMBATAN PENGGUNG", "description": "PANJANG : 7\n\nLEBAR : 5\n\nJUMLAH BENTANG : 1\n\nTIPE : G\n\nTAHUN : -\n\n<br />Elevation = 161,95 m\n<br />Coordinates = S07,77694, E110,17300\n<br />Type = Waypoint", "styleUrl": "#Point_Waypoint_19_038"}, "geometry": {"type": "Point", "coordinates": [110.173002, -7.776936, 0.0]}}, {"type": "Feature", "properties": {"name": "096 - JEMBATAN NGASEM", "description": "PANJANG : 14\n\nLEBAR : 6\n\nJUMLAH BENTANG : 1\n\nTIPE : G\n\nTAHUN : 1984\n\n<br />Elevation = 165,34 m\n<br />Coordinates = S07,76690, E110,18282\n<br />Type = Waypoint", "styleUrl": "#Point_Waypoint_19_038"}, "geometry": {"type": "Point", "coordinates": [110.182817, -7.766899, 0.0]}}, {"type": "Feature", "properties": {"name": "135 - JEMBATAN KEMBANG", "description": "PANJANG : 5\n\nLEBAR : 4,5\n\nJUMLAH BENTANG : 1\n\nTIPE : E\n\nTAHUN : -\n\n<br />Elevation = 396,03 m\n<br />Coordinates = S07,77246, E110,12181\n<br />Type = Waypoint", "styleUrl": "#Point_Waypoint_19_038"}, "geometry": {"type": "Point", "coordinates": [110.121815, -7.772464, 0.0]}}, {"type": "Feature", "properties": {"name": "136 - JEMBATAN TITIK", "description": "PANJANG : 9\n\nLEBAR : 3,5\n\nJUMLAH BENTANG : 2\n\nTIPE : G\n\nTAHUN : 1994/1995\n\n<br />Elevation = 173,89 m\n<br />Coordinates = S07,78666, E110,14479\n<br />Type = Waypoint", "styleUrl": "#Point_Waypoint_19_038"}, "geometry": {"type": "Point", "coordinates": [110.144792, -7.786663000000001, 0.0]}}, {"type": "Feature", "properties": {"name": "137 - JEMBATAN ANJIR GANDU", "description": "PANJANG : 8\n\nLEBAR : 7\n\nJUMLAH BENTANG : 1\n\nTIPE : G\n\nTAHUN : 2017\n\n<br />Elevation = 104,78 m\n<br />Coordinates = S07,85064, E110,12167\n<br />Type = Waypoint", "styleUrl": "#Point_Waypoint_19_039"}, "geometry": {"type": "Point", "coordinates": [110.12167, -7.850639, 0.0]}}, {"type": "Feature", "properties": {"name": "138 - JEMBATAN SELO", "description": "PANJANG : 21\n\nLEBAR : 4\n\nJUMLAH BENTANG : 1\n\nTIPE : G\n\nTAHUN : 1986\n\n<br />Elevation = 52,37 m\n<br />Coordinates = S07,86081, E110,10701\n<br />Type = Waypoint", "styleUrl": "#Point_Waypoint_19_039"}, "geometry": {"type": "Point", "coordinates": [110.107012, -7.860815, 0.0]}}, {"type": "Feature", "properties": {"name": "020 - UNDERPASS KARANGWULUH", "description": "PANJANG : 13\n\nLEBAR : 3\n\nJUMLAH BENTANG : 1\n\nTIPE : KX\n\nTAHUN : - \n\n<br />Elevation = 34,75 m\n<br />Coordinates = S07,86804, E110,04930\n<br />Type = Waypoint", "styleUrl": "#Point_Waypoint_19_039"}, "geometry": {"type": "Point", "coordinates": [110.049302, -7.868043, 0.0]}}, {"type": "Feature", "properties": {"name": "139 - JEMBATAN KARANGWULUH", "description": "PANJANG : 16\n\nLEBAR : 3\n\nJUMLAH BENTANG : 2\n\nTIPE : G\n\nTAHUN : -\n\n<br />Elevation = 36,31 m\n<br />Coordinates = S07,86576, E110,04967\n<br />Type = Waypoint", "styleUrl": "#Point_Waypoint_19_039"}, "geometry": {"type": "Point", "coordinates": [110.049665, -7.865764, 0.0]}}, {"type": "Feature", "properties": {"name": "140 - JEMBATAN GRINDANG", "description": "PANJANG : 16\n\nLEBAR : 4\n\nJUMLAH BENTANG : 2\n\nTIPE : G\n\nTAHUN : -\n\n<br />Elevation = 43,77 m\n<br />Coordinates = S07,85445, E110,05603\n<br />Type = Waypoint", "styleUrl": "#Point_Waypoint_19_039"}, "geometry": {"type": "Point", "coordinates": [110.056027, -7.854454, 0.0]}}, {"type": "Feature", "properties": {"name": "076 - JEMBATAN KANJANGAN BARU", "description": "PANJANG : 19\n\nLEBAR : 5\n\nJUMLAH BENTANG : 1\n\nTIPE : M\n\nTAHUN : 2017\n\n<br />Elevation = 43,53 m\n<br />Coordinates = S07,85915, E110,06063\n<br />Type = Waypoint", "styleUrl": "#Point_Waypoint_19_039"}, "geometry": {"type": "Point", "coordinates": [110.060628, -7.859154, 0.0]}}, {"type": "Feature", "properties": {"name": "080 - JEMBATAN PAPAK", "description": "PANJANG : 12,8\n\nLEBAR : 7\n\nJUMLAH BENTANG : 1\n\nTIPE : G\n\nTAHUN : 2018\n\n<br />Elevation = 51,42 m\n<br />Coordinates = S07,84675, E110,06255\n<br />Type = Waypoint", "styleUrl": "#Point_Waypoint_19_039"}, "geometry": {"type": "Point", "coordinates": [110.062548, -7.846753999999999, 0.0]}}, {"type": "Feature", "properties": {"name": "077 - JEMBATAN SANGON", "description": "PANJANG : 5\n\nLEBAR : 6,5\n\nJUMLAH BENTANG : 1\n\nTIPE : P\n\nTAHUN : 2012\n\n<br />Elevation = 85,67 m\n<br />Coordinates = S07,83437, E110,06634\n<br />Type = Waypoint", "styleUrl": "#Point_Waypoint_19_039"}, "geometry": {"type": "Point", "coordinates": [110.066339, -7.834370999999999, 0.0]}}, {"type": "Feature", "properties": {"name": "078 - JEMBATAN PLAMPANG III", "description": "PANJANG : 16\n\nLEBAR : 5\n\nJUMLAH BENTANG : 1\n\nTIPE : G\n\nTAHUN : -\n\n<br />Elevation = 113,28 m\n<br />Coordinates = S07,82858, E110,07001\n<br />Type = Waypoint", "styleUrl": "#Point_Waypoint_19_039"}, "geometry": {"type": "Point", "coordinates": [110.07001, -7.828581, 0.0]}}, {"type": "Feature", "properties": {"name": "079 - JEMBATAN CLUMPRIT", "description": "PANJANG : 5\n\nLEBAR : 6\n\nJUMLAH BENTANG : 1\n\nTIPE : G\n\nTAHUN : 2016\n\n<br />Elevation = 325,14 m\n<br />Coordinates = S07,82020, E110,08242\n<br />Type = Waypoint", "styleUrl": "#Point_Waypoint_19_039"}, "geometry": {"type": "Point", "coordinates": [110.082419, -7.820196, 0.0]}}, {"type": "Feature", "properties": {"name": "153 - JEMBATAN PLAMPANG I", "description": "PANJANG : 6\n\nLEBAR : 11\n\nJUMLAH BENTANG : 1\n\nTIPE : G/E\n\nTAHUN : 2014\n\n<br />Elevation = 333,07 m\n<br />Coordinates = S07,81319, E110,07716\n<br />Type = Waypoint", "styleUrl": "#Point_Waypoint_19_039"}, "geometry": {"type": "Point", "coordinates": [110.07716, -7.813193, 0.0]}}, {"type": "Feature", "properties": {"name": "019 - JEMBATAN TONOBAKAL", "description": "PANJANG : 16\n\nLEBAR : 6,5\n\nJUMLAH BENTANG : 1\n\nTIPE : G\n\nTAHUN : 1982 \n\n<br />Elevation = 36,21 m\n<br />Coordinates = S07,86898, E110,07294\n<br />Type = Waypoint", "styleUrl": "#Point_Waypoint_19_039"}, "geometry": {"type": "Point", "coordinates": [110.072937, -7.868976, 0.0]}}, {"type": "Feature", "properties": {"name": "018 - JEMBATAN BANJARAN", "description": "PANJANG : 14\n\nLEBAR : 7\n\nJUMLAH BENTANG : 1\n\nTIPE : G\n\nTAHUN : 1985\n\n<br />Elevation = 39,15 m\n<br />Coordinates = S07,86260, E110,07617\n<br />Type = Waypoint", "styleUrl": "#Point_Waypoint_19_039"}, "geometry": {"type": "Point", "coordinates": [110.076171, -7.862596, 0.0]}}, {"type": "Feature", "properties": {"name": "017 - JEMBATAN INPRES II", "description": "PANJANG : 8\n\nLEBAR : 5\n\nJUMLAH BENTANG : 1\n\nTIPE : P\n\nTAHUN : 1984/1985\n\n<br />Elevation = 42,03 m\n<br />Coordinates = S07,85786, E110,08144\n<br />Type = Waypoint", "styleUrl": "#Point_Waypoint_19_039"}, "geometry": {"type": "Point", "coordinates": [110.081442, -7.857858999999999, 0.0]}}, {"type": "Feature", "properties": {"name": "016 - JEMBATAN INPRES", "description": "PANJANG : 8\n\nLEBAR : 6\n\nJUMLAH BENTANG : 1\n\nTIPE : P\n\nTAHUN : 1984/1985\n\n<br />Elevation = 52,39 m\n<br />Coordinates = S07,85290, E110,08528\n<br />Type = Waypoint", "styleUrl": "#Point_Waypoint_19_039"}, "geometry": {"type": "Point", "coordinates": [110.085284, -7.852904, 0.0]}}, {"type": "Feature", "properties": {"name": "065 - JEMBATAN MENGURI I", "description": "PANJANG : 12\n\nLEBAR : 4\n\nJUMLAH BENTANG : 1\n\nTIPE : G\n\nTAHUN : -\n\n<br />Elevation = 198,32 m\n<br />Coordinates = S07,80892, E110,10161\n<br />Type = Waypoint", "styleUrl": "#Point_Waypoint_19_039"}, "geometry": {"type": "Point", "coordinates": [110.101615, -7.80892, 0.0]}}, {"type": "Feature", "properties": {"name": "066 - JEMBATAN MENGURI II HARGOTIRTO", "description": "PANJANG : 20\n\nLEBAR : 4\n\nJUMLAH BENTANG : 2\n\nTIPE : G\n\nTAHUN : 1981\n\n<br />Elevation = 174,76 m\n<br />Coordinates = S07,80935, E110,10635\n<br />Type = Waypoint", "styleUrl": "#Point_Waypoint_19_039"}, "geometry": {"type": "Point", "coordinates": [110.106355, -7.809348, 0.0]}}, {"type": "Feature", "properties": {"name": "068 - JEMBATAN KLALAR 2 (BARU)", "description": "PANJANG : 31\n\nLEBAR : 5,5\n\nJUMLAH BENTANG : 1\n\nTIPE : M\n\nTAHUN : 2018\n\n<br />Elevation = 171,05 m\n<br />Coordinates = S07,81015, E110,10888\n<br />Type = Waypoint", "styleUrl": "#Point_Waypoint_19_039"}, "geometry": {"type": "Point", "coordinates": [110.108882, -7.810152, 0.0]}}, {"type": "Feature", "properties": {"name": "064 - JEMBATAN MAGONGAN", "description": "PANJANG : 12\n\nLEBAR : 4,5\n\nJUMLAH BENTANG : 2\n\nTIPE : E\n\nTAHUN : -\n\n<br />Elevation = 219,89 m\n<br />Coordinates = S07,79671, E110,11361\n<br />Type = Waypoint", "styleUrl": "#Point_Waypoint_19_039"}, "geometry": {"type": "Point", "coordinates": [110.113611, -7.796707, 0.0]}}, {"type": "Feature", "properties": {"name": "072 - JEMBATAN SERMO", "description": "PANJANG : 26\n\nLEBAR : 9\n\nJUMLAH BENTANG : 1\n\nTIPE : M\n\nTAHUN : 2001\n\n<br />Elevation = 103,81 m\n<br />Coordinates = S07,82307, E110,12680\n<br />Type = Waypoint", "styleUrl": "#Point_Waypoint_19_039"}, "geometry": {"type": "Point", "coordinates": [110.126799, -7.823074, 0.0]}}, {"type": "Feature", "properties": {"name": "067 - JEMBATAN KLALAR 1 (LAMA)", "description": "PANJANG : 31\n\nLEBAR : 4\n\nJUMLAH BENTANG : 3\n\nTIPE : E\n\nTAHUN : -\n\n<br />Coordinates = S07,81023, E110,10883\n<br />Type = Waypoint", "styleUrl": "#Point_Waypoint_19_039"}, "geometry": {"type": "Point", "coordinates": [110.10882863, -7.810225009999999, 0.0]}}, {"type": "Feature", "properties": {"name": "075 - JEMBATAN KANJANGAN LAMA", "description": "PANJANG : 19\n\nLEBAR : 4,5\n\nJUMLAH BENTANG : 1\n\nTIPE : G\n\nTAHUN : 1981/1982\n\n<br />Coordinates = S07,85915, E110,06065\n<br />Type = Waypoint", "styleUrl": "#Point_Waypoint_19_039"}, "geometry": {"type": "Point", "coordinates": [110.06064678, -7.859154619999999, 0.0]}}, {"type": "Feature", "properties": {"name": "060 - JEMBATAN - BRANGKAL", "description": "PANJANG : 5\n\nLEBAR : 7\n\nJUMLAH BENTANG : 1\n\nTIPE : G\n\nTAHUN : 2017\n\n<br />Elevation = 71,31 m\n<br />Coordinates = S07,82168, E110,17200\n<br />Type = Bridge", "styleUrl": "#Point_Bridge_19_030"}, "geometry": {"type": "Point", "coordinates": [110.171998, -7.821678, 0.0]}}, {"type": "Feature", "properties": {"name": "061 - JEMBATAN SAMBIROTO", "description": "PANJANG : 63\n\nLEBAR : 8\n\nJUMLAH BENTANG : 2\n\nTIPE : M\n\nTAHUN : 2016\n\n<br />Elevation = 73,13 m\n<br />Coordinates = S07,81546, E110,16852\n<br />Type = Bridge", "styleUrl": "#Point_Bridge_19_030"}, "geometry": {"type": "Point", "coordinates": [110.168522, -7.815463, 0.0]}}, {"type": "Feature", "properties": {"name": "062 - JEMBATAN TRAMAN", "description": "PANJANG : 27\n\nLEBAR : 3,4\n\nJUMLAH BENTANG : 2\n\nTIPE : G\n\nTAHUN : 2004\n\n<br />Elevation = 112,84 m\n<br />Coordinates = S07,78583, E110,17971\n<br />Type = Bridge", "styleUrl": "#Point_Bridge_19_030"}, "geometry": {"type": "Point", "coordinates": [110.179707, -7.785831999999999, 0.0]}}, {"type": "Feature", "properties": {"name": "063 - JEMBATAN BESILEN", "description": "PANJANG : 11\n\nLEBAR : 7\n\nJUMLAH BENTANG : 1\n\nTIPE : G\n\nTAHUN : 2015\n\n<br />Elevation = 124,24 m\n<br />Coordinates = S07,78090, E110,17869\n<br />Type = Bridge", "styleUrl": "#Point_Bridge_19_030"}, "geometry": {"type": "Point", "coordinates": [110.178688, -7.7809, 0.0]}}, {"type": "Feature", "properties": {"name": "014 - JEMBATAN KRENGSENG", "description": "PANJANG : 12\n\nLEBAR : 8\n\nJUMLAH BENTANG : 1\n\nTIPE : G\n\nTAHUN : 2016\n\n<br />Elevation = 102,49 m\n<br />Coordinates = S07,79304, E110,18233\n<br />Type = Bridge", "styleUrl": "#Point_Bridge_19_030"}, "geometry": {"type": "Point", "coordinates": [110.18233, -7.793036000000001, 0.0]}}, {"type": "Feature", "properties": {"name": "053 - JEMBATAN SUDU IRIGASI", "description": "PANJANG : 9\n\nLEBAR : 5,5\n\nJUMLAH BENTANG : 4\n\nTIPE : P\n\nTAHUN : -\n\n<br />Elevation = 126,05 m\n<br />Coordinates = S07,78710, E110,20005\n<br />Type = Bridge", "styleUrl": "#Point_Bridge_19_030"}, "geometry": {"type": "Point", "coordinates": [110.200048, -7.7871, 0.0]}}, {"type": "Feature", "properties": {"name": "054 - JEMBATAN SRIBIT 1", "description": "PANJANG : 15\n\nLEBAR : 5,5\n\nJUMLAH BENTANG : 1\n\nTIPE : E\n\nTAHUN : -\n\n<br />Elevation = 155,44 m\n<br />Coordinates = S07,77326, E110,19305\n<br />Type = Bridge", "styleUrl": "#Point_Bridge_19_030"}, "geometry": {"type": "Point", "coordinates": [110.19305, -7.773259, 0.0]}}, {"type": "Feature", "properties": {"name": "055 - JEMBATAN SRIBIT 2", "description": "PANJANG : 9\n\nLEBAR : 6\n\nJUMLAH BENTANG : 1\n\nTIPE : E\n\nTAHUN : -\n\n<br />Elevation = 155,00 m\n<br />Coordinates = S07,77142, E110,18431\n<br />Type = Bridge", "styleUrl": "#Point_Bridge_19_030"}, "geometry": {"type": "Point", "coordinates": [110.184308, -7.771419, 0.0]}}, {"type": "Feature", "properties": {"name": "011 - JEMBATAN TRETES", "description": "PANJANG : 11,8\n\nLEBAR : 6\n\nJUMLAH BENTANG : 1\n\nTIPE : G\n\nTAHUN :1987/1988 \n\n<br />Elevation = 160,48 m\n<br />Coordinates = S07,77070, E110,18243\n<br />Type = Bridge", "styleUrl": "#Point_Bridge_19_030"}, "geometry": {"type": "Point", "coordinates": [110.182433, -7.770698, 0.0]}}, {"type": "Feature", "properties": {"name": "012 - JEMBATAN IRIGASI KRANDAN", "description": "PANJANG : 5\n\nLEBAR : 11\n\nJUMLAH BENTANG : 1\n\nTIPE : P/E\n\nTAHUN : -\n\n<br />Elevation = 126,69 m\n<br />Coordinates = S07,77355, E110,19864\n<br />Type = Bridge", "styleUrl": "#Point_Bridge_19_030"}, "geometry": {"type": "Point", "coordinates": [110.198639, -7.773553999999999, 0.0]}}, {"type": "Feature", "properties": {"name": "013 - JEMBATAN JANTI", "description": "PANJANG : 26\n\nLEBAR : 7\n\nJUMLAH BENTANG : 1\n\nTIPE : G\n\nTAHUN : 1984\n\n<br />Elevation = 102,99 m\n<br />Coordinates = S07,77357, E110,20869\n<br />Type = Bridge", "styleUrl": "#Point_Bridge_19_030"}, "geometry": {"type": "Point", "coordinates": [110.208686, -7.773569, 0.0]}}, {"type": "Feature", "properties": {"name": "129 - JEMBATAN NGLENGKEH", "description": "PANJANG : 8\n\nLEBAR : 3,5\n\nJUMLAH BENTANG : 2\n\nTIPE : E\n\nTAHUN : -\n\n<br />Elevation = 133,54 m\n<br />Coordinates = S07,73807, E110,19627\n<br />Type = Bridge", "styleUrl": "#Point_Bridge_19_030"}, "geometry": {"type": "Point", "coordinates": [110.196269, -7.738073, 0.0]}}, {"type": "Feature", "properties": {"name": "091 - JEMBATAN KALISOKA", "description": "PANJANG : 15\n\nLEBAR : 3,5\n\nJUMLAH BENTANG : 2\n\nTIPE : E\n\nTAHUN : -\n\n<br />Elevation = 108,50 m\n<br />Coordinates = S07,73381, E110,20475\n<br />Type = Bridge", "styleUrl": "#Point_Bridge_19_030"}, "geometry": {"type": "Point", "coordinates": [110.204754, -7.733815, 0.0]}}, {"type": "Feature", "properties": {"name": "130 - JEMBATAN KERINJING II", "description": "PANJANG : 5\n\nLEBAR : 4\n\nJUMLAH BENTANG : 1\n\nTIPE : E\n\nTAHUN : -\n\n<br />Elevation = 87,89 m\n<br />Coordinates = S07,76805, E110,21694\n<br />Type = Bridge", "styleUrl": "#Point_Bridge_19_030"}, "geometry": {"type": "Point", "coordinates": [110.216942, -7.768044999999999, 0.0]}}], "name": "/tmp/outputs/"}